{"features":[{"geometry":{"coordinates":[105.80926,21.01098],"type":"Point"},"properties":{"city":"Hà Nội","district":"Quận Cầu Giấy","location":"Rich Coffee \u0026 Tea, 137 Đường Nguyễn Ngọc Vũ, Phường Trung Hòa, Quận Cầu Giấy, Hà Nội, Việt Nam","name":"Rich Coffee \u0026 Tea","street":"Đường Nguyễn Ngọc Vũ"},"type":"Feature"},{"geometry":{"coordinates":[105.80926,21.01098],"type":"Point"},"properties":{"city":"Hà Nội","district":"Quận Cầu Giấy","location":"Quán Coffee Cóc, 137 Đường Nguyễn Ngọc Vũ, Phường Trung Hòa, Quận Cầu Giấy, Hà Nội, Việt Nam","name":"Quán Coffee Cóc","street":"Đường Nguyễn Ngọc Vũ"},"type":"Feature"},{"geometry":{"coordinates":[105.80837,21.01181],"type":"Point"},"properties":{"city":"Hà Nội","district":"Quận Cầu Giấy","location":"DC Coffee Số 145 Nguyễn Ngọc Vũ, 145 Đường Nguyễn Ngọc Vũ, Phường Trung Hòa, Quận Cầu Giấy, Hà Nội, Việt Nam","name":"DC Coffee Số 145 Nguyễn Ngọc Vũ","street":"Đường Nguyễn Ngọc Vũ"},"type":"Feature"},{"geometry":{"coordinates":[105.80815,21.01189],"type":"Point"},"properties":{"city":"Hà Nội","district":"Quận Cầu Giấy","location":"Coffee Fastfood, 159 Đường Nguyễn Ngọc Vũ, Phường Trung Hòa, Quận Cầu Giấy, Hà Nội, Việt Nam","name":"Coffee Fastfood","street":"Đường Nguyễn Ngọc Vũ"},"type":"Feature"},{"geometry":{"coordinates":[105.80813,21.0119],"type":"Point"},"properties":{"city":"Hà Nội","district":"Quận Cầu Giấy","location":"Hiền Cafe, 163 Đường Nguyễn Ngọc Vũ, Phường Trung Hòa, Quận Cầu Giấy, Hà Nội, Việt Nam","name":"Hiền Cafe","street":"Đường Nguyễn Ngọc Vũ"},"type":"Feature"},{"geometry":{"coordinates":[105.808,21.0088],"type":"Point"},"properties":{"city":"Hà Nội","district":"Quận Cầu Giấy","location":"Bách Hợp, Phố Hoàng Ngân, Phường Trung Hòa, Quận Cầu Giấy, Hà Nội, Việt Nam","name":"Bách Hợp","street":"Phố Hoàng Ngân"},"type":"Feature"},{"geometry":{"coordinates":[105.80808,21.01192],"type":"Point"},"properties":{"city":"Hà Nội","district":"Quận Cầu Giấy","location":"Nic Happy, Ngõ 167 Nguyễn Ngọc Vũ, Phường Trung Hòa, Quận Cầu Giấy, Hà Nội, Việt Nam","name":"Nic Happy","street":"Ngõ 167 Nguyễn Ngọc Vũ"},"type":"Feature"},{"geometry":{"coordinates":[105.80724,21.00905],"type":"Point"},"properties":{"city":"Hà Nội","district":"Quận Cầu Giấy","location":"Nhất Long Café, Phố Hoàng Ngân, Phường Trung Hòa, Quận Cầu Giấy, Hà Nội, Việt Nam","name":"Nhất Long Café","street":"Phố Hoàng Ngân"},"type":"Feature"},{"geometry":{"coordinates":[105.80724,21.00905],"type":"Point"},"properties":{"city":"Hà Nội","district":"Quận Cầu Giấy","location":"Cà Phê T2, 108 Phố Hoàng Ngân, Phường Trung Hòa, Quận Cầu Giấy, Hà Nội, Việt Nam","name":"Cà Phê T2","street":"Phố Hoàng Ngân"},"type":"Feature"},{"geometry":{"coordinates":[105.80801,21.01195],"type":"Point"},"properties":{"city":"Hà Nội","district":"Quận Cầu Giấy","location":"Nighteen Coffee - Tầng 19A - 169 Nguyễn Ngọc Vũ, Ngõ 167 Nguyễn Ngọc Vũ, Phường Trung Hòa, Quận Cầu Giấy, Hà Nội, Việt Nam","name":"Nighteen Coffee - Tầng 19A - 169 Nguyễn Ngọc Vũ","street":"Ngõ 167 Nguyễn Ngọc Vũ"},"type":"Feature"},{"geometry":{"coordinates":[105.81,21.0106],"type":"Point"},"properties":{"city":"Hà Nội","district":"Quận Cầu Giấy","location":"Cà Phê Hạ Trắng, 129 Đường Nguyễn Ngọc Vũ, Phường Trung Hòa, Quận Cầu Giấy, Hà Nội, Việt Nam","name":"Cà Phê Hạ Trắng","street":"Đường Nguyễn Ngọc Vũ"},"type":"Feature"},{"geometry":{"coordinates":[105.81,21.0106],"type":"Point"},"properties":{"city":"Hà Nội","district":"Quận Cầu Giấy","location":"Mộc 129 Cafe \u0026 Wine, 129 Đường Nguyễn Ngọc Vũ, Phường Trung Hòa, Quận Cầu Giấy, Hà Nội, Việt Nam","name":"Mộc 129 Cafe \u0026 Wine","street":"Đường Nguyễn Ngọc Vũ"},"type":"Feature"},{"geometry":{"coordinates":[105.80698,21.00902],"type":"Point"},"properties":{"city":"Hà Nội","district":"Quận Cầu Giấy","location":"Pallet Cafe, Phường Trung Hòa, Quận Cầu Giấy, Hà Nội, Việt Nam","name":"Pallet Cafe","street":""},"type":"Feature"},{"geometry":{"coordinates":[105.8063,21.01074],"type":"Point"},"properties":{"city":"Hà Nội","district":"Quận Cầu Giấy","location":"Cafe An, Ngõ 189 Nguyễn Ngọc Vũ, Phường Trung Hòa, Quận Cầu Giấy, Hà Nội, Việt Nam","name":"Cafe An","street":"Ngõ 189 Nguyễn Ngọc Vũ"},"type":"Feature"},{"geometry":{"coordinates":[105.80628,21.01074],"type":"Point"},"properties":{"city":"Hà Nội","district":"Quận Cầu Giấy","location":"Dues Coffee, Ngõ 189 Nguyễn Ngọc Vũ, Phường Trung Hòa, Quận Cầu Giấy, Hà Nội, Việt Nam","name":"Dues Coffee","street":"Ngõ 189 Nguyễn Ngọc Vũ"},"type":"Feature"},{"geometry":{"coordinates":[105.81027,21.00999],"type":"Point"},"properties":{"city":"Hà Nội","district":"Quận Cầu Giấy","location":"Cà Phê T.T, 9 Đường Lê Văn Lương, Phường Trung Hòa, Quận Cầu Giấy, Hà Nội, Việt Nam","name":"Cà Phê T.T","street":"Đường Lê Văn Lương"},"type":"Feature"},{"geometry":{"coordinates":[105.80628,21.01088],"type":"Point"},"properties":{"city":"Hà Nội","district":"Quận Cầu Giấy","location":"Nguyên Mộc Coffee \u0026 Fast Food, Ngõ 171 Nguyễn Ngọc Vũ, Phường Trung Hòa, Quận Cầu Giấy, Hà Nội, Việt Nam","name":"Nguyên Mộc Coffee \u0026 Fast Food","street":"Ngõ 171 Nguyễn Ngọc Vũ"},"type":"Feature"},{"geometry":{"coordinates":[105.8103,21.01005],"type":"Point"},"properties":{"city":"Hà Nội","district":"Quận Cầu Giấy","location":"19 Tố Hữu, 10 Đường Lê Văn Lương, Phường Trung Hòa, Quận Cầu Giấy, Hà Nội, Việt Nam","name":"19 Tố Hữu","street":"Đường Lê Văn Lương"},"type":"Feature"},{"geometry":{"coordinates":[105.80771,21.01222],"type":"Point"},"properties":{"city":"Hà Nội","district":"Quận Cầu Giấy","location":"Coffee 169 Nguyễn Ngọc Vũ, 169 Đường Nguyễn Ngọc Vũ, Phường Trung Hòa, Quận Cầu Giấy, Hà Nội, Việt Nam","name":"Coffee 169 Nguyễn Ngọc Vũ","street":"Đường Nguyễn Ngọc Vũ"},"type":"Feature"},{"geometry":{"coordinates":[105.80771,21.01222],"type":"Point"},"properties":{"city":"Hà Nội","district":"Quận Cầu Giấy","location":"Tình Bằng Hữu Cafe, 169 Đường Nguyễn Ngọc Vũ, Phường Trung Hòa, Quận Cầu Giấy, Hà Nội, Việt Nam","name":"Tình Bằng Hữu Cafe","street":"Đường Nguyễn Ngọc Vũ"},"type":"Feature"},{"geometry":{"coordinates":[105.80818,21.00839],"type":"Point"},"properties":{"city":"Hà Nội","district":"Quận Cầu Giấy","location":"Số 2 Ngõ 86 Hoàng Ngân, Ngõ 125 Nguyễn Ngọc Vũ, Phường Trung Hòa, Quận Cầu Giấy, Hà Nội, Việt Nam","name":"Số 2 Ngõ 86 Hoàng Ngân","street":"Ngõ 125 Nguyễn Ngọc Vũ"},"type":"Feature"},{"geometry":{"coordinates":[105.80624,21.00969],"type":"Point"},"properties":{"city":"Hà Nội","district":"Quận Cầu Giấy","location":"Lag Cafe, Phố Hoàng Ngân, Phường Trung Hòa, Quận Cầu Giấy, Hà Nội, Việt Nam","name":"Lag Cafe","street":"Phố Hoàng Ngân"},"type":"Feature"},{"geometry":{"coordinates":[105.80735,21.0085],"type":"Point"},"properties":{"city":"Hà Nội","district":"Quận Cầu Giấy","location":"Trung Nguyen Coffee, Phố Hoàng Ngân, Phường Trung Hòa, Quận Cầu Giấy, Hà Nội, Việt Nam","name":"Trung Nguyen Coffee","street":"Phố Hoàng Ngân"},"type":"Feature"},{"geometry":{"coordinates":[105.80609,21.01066],"type":"Point"},"properties":{"city":"Hà Nội","district":"Quận Cầu Giấy","location":"Ashtray Coffee, Ngõ 114 Hoàng Ngân, Phường Trung Hòa, Quận Cầu Giấy, Hà Nội, Việt Nam","name":"Ashtray Coffee","street":"Ngõ 114 Hoàng Ngân"},"type":"Feature"},{"geometry":{"coordinates":[105.81032,21.00942],"type":"Point"},"properties":{"city":"Hà Nội","district":"Quận Cầu Giấy","location":"Unplugged Cafe, Ngõ 80 Hoàng Ngân, Phường Trung Hòa, Quận Cầu Giấy, Hà Nội, Việt Nam","name":"Unplugged Cafe","street":"Ngõ 80 Hoàng Ngân"},"type":"Feature"},{"geometry":{"coordinates":[105.80954,21.01214],"type":"Point"},"properties":{"city":"Hà Nội","district":"Quận Đống Đa","location":"Cafe Xưa, Đường Láng, Phường Láng Hạ, Quận Đống Đa, Hà Nội, Việt Nam","name":"Cafe Xưa","street":"Đường Láng"},"type":"Feature"},{"geometry":{"coordinates":[105.8059,21.01073],"type":"Point"},"properties":{"city":"Hà Nội","district":"Quận Cầu Giấy","location":"Quán Café 86, Ngõ 189 Nguyễn Ngọc Vũ, Phường Trung Hòa, Quận Cầu Giấy, Hà Nội, Việt Nam","name":"Quán Café 86","street":"Ngõ 189 Nguyễn Ngọc Vũ"},"type":"Feature"},{"geometry":{"coordinates":[105.80809,21.00806],"type":"Point"},"properties":{"city":"Hà Nội","district":"Quận Cầu Giấy","location":"Cafe Bằng, Đường Lê Văn Lương, Phường Trung Hòa, Quận Cầu Giấy, Hà Nội, Việt Nam","name":"Cafe Bằng","street":"Đường Lê Văn Lương"},"type":"Feature"},{"geometry":{"coordinates":[105.81069,21.00999],"type":"Point"},"properties":{"city":"Hà Nội","district":"Quận Cầu Giấy","location":"3b Cafe, Đường Lê Văn Lương, Phường Trung Hòa, Quận Cầu Giấy, Hà Nội, Việt Nam","name":"3b Cafe","street":"Đường Lê Văn Lương"},"type":"Feature"},{"geometry":{"coordinates":[105.81081,21.01007],"type":"Point"},"properties":{"city":"Hà Nội","district":"Quận Cầu Giấy","location":"F+ Cafe, Đường Nguyễn Ngọc Vũ, Phường Trung Hòa, Quận Cầu Giấy, Hà Nội, Việt Nam","name":"F+ Cafe","street":"Đường Nguyễn Ngọc Vũ"},"type":"Feature"},{"geometry":{"coordinates":[105.80563,21.01025],"type":"Point"},"properties":{"city":"Hà Nội","district":"Quận Cầu Giấy","location":"Sapio Coffee, Ngõ 71 Nguyễn Thị Định, Phường Trung Hòa, Quận Cầu Giấy, Hà Nội, Việt Nam","name":"Sapio Coffee","street":"Ngõ 71 Nguyễn Thị Định"},"type":"Feature"},{"geometry":{"coordinates":[105.80561,21.00991],"type":"Point"},"properties":{"city":"Hà Nội","district":"Quận Cầu Giấy","location":"Cafe Mộc, Ngõ 123 Hoàng Ngân, Phường Trung Hòa, Quận Cầu Giấy, Hà Nội, Việt Nam","name":"Cafe Mộc","street":"Ngõ 123 Hoàng Ngân"},"type":"Feature"},{"geometry":{"coordinates":[105.81093,21.01002],"type":"Point"},"properties":{"city":"Hà Nội","district":"Quận Cầu Giấy","location":"Quán Cafe, Fast Food, 91 Hẻm 60 Đường Nguyễn Ngọc Vũ, Phường Trung Hòa, Quận Cầu Giấy, Hà Nội, Việt Nam","name":"Quán Cafe, Fast Food","street":"Hẻm 60 Đường Nguyễn Ngọc Vũ"},"type":"Feature"},{"geometry":{"coordinates":[105.81102,21.00997],"type":"Point"},"properties":{"city":"Hà Nội","district":"Quận Cầu Giấy","location":"Trung Nguyên, Đường Nguyễn Ngọc Vũ, Phường Trung Hòa, Quận Cầu Giấy, Hà Nội, Việt Nam","name":"Trung Nguyên","street":"Đường Nguyễn Ngọc Vũ"},"type":"Feature"},{"geometry":{"coordinates":[105.80976,21.01267],"type":"Point"},"properties":{"city":"Hà Nội","district":"Quận Đống Đa","location":"Onion Coffee Book Shop, Ngõ Láng Trung, Phường Láng Hạ, Quận Đống Đa, Hà Nội, Việt Nam","name":"Onion Coffee Book Shop","street":"Ngõ Láng Trung"},"type":"Feature"},{"geometry":{"coordinates":[105.81119,21.00986],"type":"Point"},"properties":{"city":"Hà Nội","district":"Quận Cầu Giấy","location":"Cafe 1994, 83 Đường Nguyễn Ngọc Vũ, Phường Trung Hòa, Quận Cầu Giấy, Hà Nội, Việt Nam","name":"Cafe 1994","street":"Đường Nguyễn Ngọc Vũ"},"type":"Feature"},{"geometry":{"coordinates":[105.8111,21.01121],"type":"Point"},"properties":{"city":"Hà Nội","district":"Quận Đống Đa","location":"Toco Toco, Phố Láng Hạ, Phường Láng Hạ, Quận Đống Đa, Hà Nội, Việt Nam","name":"Toco Toco","street":"Phố Láng Hạ"},"type":"Feature"},{"geometry":{"coordinates":[105.81116,21.01122],"type":"Point"},"properties":{"city":"Hà Nội","district":"Quận Đống Đa","location":"Njoy, Phố Láng Hạ, Phường Láng Hạ, Quận Đống Đa, Hà Nội, Việt Nam","name":"Njoy","street":"Phố Láng Hạ"},"type":"Feature"},{"geometry":{"coordinates":[105.80934,21.01307],"type":"Point"},"properties":{"city":"Hà Nội","district":"Quận Đống Đa","location":"Cafe Linh, Ngõ Láng Trung, Phường Láng Hạ, Quận Đống Đa, Hà Nội, Việt Nam","name":"Cafe Linh","street":"Ngõ Láng Trung"},"type":"Feature"},{"geometry":{"coordinates":[105.80797,21.00744],"type":"Point"},"properties":{"city":"Hà Nội","district":"Quận Thanh Xuân","location":"Quán Cafe, 27 Đường Lê Văn Lương, Phường Nhân Chính, Quận Thanh Xuân, Hà Nội, Việt Nam","name":"Quán Cafe","street":"Đường Lê Văn Lương"},"type":"Feature"},{"geometry":{"coordinates":[105.81134,21.00964],"type":"Point"},"properties":{"city":"Hà Nội","district":"Quận Cầu Giấy","location":"Ngọc Cafe - Nguyễn Ngọc Vũ, 29 Hẻm 8 Đường Nguyễn Ngọc Vũ, Phường Trung Hòa, Quận Cầu Giấy, Hà Nội, Việt Nam","name":"Ngọc Cafe - Nguyễn Ngọc Vũ","street":"Hẻm 8 Đường Nguyễn Ngọc Vũ"},"type":"Feature"},{"geometry":{"coordinates":[105.80663,21.01312],"type":"Point"},"properties":{"city":"Hà Nội","district":"Quận Cầu Giấy","location":"Q Cafe, Đường Nguyễn Ngọc Vũ, Phường Trung Hòa, Quận Cầu Giấy, Hà Nội, Việt Nam","name":"Q Cafe","street":"Đường Nguyễn Ngọc Vũ"},"type":"Feature"},{"geometry":{"coordinates":[105.80646,21.01312],"type":"Point"},"properties":{"city":"Hà Nội","district":"Quận Cầu Giấy","location":"Camol Coffee, Đường Nguyễn Ngọc Vũ, Phường Trung Hòa, Quận Cầu Giấy, Hà Nội, Việt Nam","name":"Camol Coffee","street":"Đường Nguyễn Ngọc Vũ"},"type":"Feature"},{"geometry":{"coordinates":[105.80479,21.01055],"type":"Point"},"properties":{"city":"Hà Nội","district":"Quận Cầu Giấy","location":"Coffee 106, Phố Nguyễn Thị Định, Phường Trung Hòa, Quận Cầu Giấy, Hà Nội, Việt Nam","name":"Coffee 106","street":"Phố Nguyễn Thị Định"},"type":"Feature"},{"geometry":{"coordinates":[105.80484,21.01096],"type":"Point"},"properties":{"city":"Hà Nội","district":"Quận Cầu Giấy","location":"1987 Coffe - 28/8 Nguyễn Thị Định, Phố Nguyễn Thị Định, Phường Trung Hòa, Quận Cầu Giấy, Hà Nội, Việt Nam","name":"1987 Coffe - 28/8 Nguyễn Thị Định","street":"Phố Nguyễn Thị Định"},"type":"Feature"},{"geometry":{"coordinates":[105.8102,21.01308],"type":"Point"},"properties":{"city":"Hà Nội","district":"Quận Đống Đa","location":"Cafe Trung Nguyên, 562 Hẻm 562 Đường Láng, Phường Láng Hạ, Quận Đống Đa, Hà Nội, Việt Nam","name":"Cafe Trung Nguyên","street":"Hẻm 562 Đường Láng"},"type":"Feature"},{"geometry":{"coordinates":[105.8113,21.01199],"type":"Point"},"properties":{"city":"Hà Nội","district":"Quận Đống Đa","location":"Zen Cafe, Phường Láng Hạ, Quận Đống Đa, Hà Nội, Việt Nam","name":"Zen Cafe","street":""},"type":"Feature"},{"geometry":{"coordinates":[105.80977,21.00739],"type":"Point"},"properties":{"city":"Hà Nội","district":"Quận Thanh Xuân","location":"Tiamo Coffee, Phố Hoàng Ngân, Phường Nhân Chính, Quận Thanh Xuân, Hà Nội, Việt Nam","name":"Tiamo Coffee","street":"Phố Hoàng Ngân"},"type":"Feature"},{"geometry":{"coordinates":[105.8115,21.01165],"type":"Point"},"properties":{"city":"Hà Nội","district":"Quận Đống Đa","location":"Royaltea 96 Láng Hạ, Phố Láng Hạ, Phường Láng Hạ, Quận Đống Đa, Hà Nội, Việt Nam","name":"Royaltea 96 Láng Hạ","street":"Phố Láng Hạ"},"type":"Feature"},{"geometry":{"coordinates":[105.80485,21.00951],"type":"Point"},"properties":{"city":"Hà Nội","district":"Quận Cầu Giấy","location":"Nhà Hàng My Friend - Nguyễn Thị Định, 83 Ngõ 87 Nguyễn Thị Định, Phường Trung Hòa, Quận Cầu Giấy, Hà Nội, Việt Nam","name":"Nhà Hàng My Friend - Nguyễn Thị Định","street":"Ngõ 87 Nguyễn Thị Định"},"type":"Feature"},{"geometry":{"coordinates":[105.81085,21.01261],"type":"Point"},"properties":{"city":"Hà Nội","district":"Quận Đống Đa","location":"Quán Cafe, Ngõ 538 Đường Láng, Phường Láng Hạ, Quận Đống Đa, Hà Nội, Việt Nam","name":"Quán Cafe","street":"Ngõ 538 Đường Láng"},"type":"Feature"},{"geometry":{"coordinates":[105.8048,21.00958],"type":"Point"},"properties":{"city":"Hà Nội","district":"Quận Cầu Giấy","location":"Cà Phê Blue Bon, Phố Nguyễn Thị Định, Phường Trung Hòa, Quận Cầu Giấy, Hà Nội, Việt Nam","name":"Cà Phê Blue Bon","street":"Phố Nguyễn Thị Định"},"type":"Feature"},{"geometry":{"coordinates":[105.81166,21.01133],"type":"Point"},"properties":{"city":"Hà Nội","district":"Quận Đống Đa","location":"Cafe Deli, 153 Phố Láng Hạ, Phường Láng Hạ, Quận Đống Đa, Hà Nội, Việt Nam","name":"Cafe Deli","street":"Phố Láng Hạ"},"type":"Feature"},{"geometry":{"coordinates":[105.81167,21.00939],"type":"Point"},"properties":{"city":"Hà Nội","district":"Quận Cầu Giấy","location":"Black Gold Cafe, Đường Nguyễn Ngọc Vũ, Phường Trung Hòa, Quận Cầu Giấy, Hà Nội, Việt Nam","name":"Black Gold Cafe","street":"Đường Nguyễn Ngọc Vũ"},"type":"Feature"},{"geometry":{"coordinates":[105.81177,21.01098],"type":"Point"},"properties":{"city":"Hà Nội","district":"Quận Đống Đa","location":"Che Guevara Café, Ngách 151/1 Láng Hạ, Phường Láng Hạ, Quận Đống Đa, Hà Nội, Việt Nam","name":"Che Guevara Café","street":"Ngách 151/1 Láng Hạ"},"type":"Feature"},{"geometry":{"coordinates":[105.81151,21.01174],"type":"Point"},"properties":{"city":"Hà Nội","district":"Quận Đống Đa","location":"Green Coffee Ngõ 92 Láng Hạ, Phố Láng Hạ, Phường Láng Hạ, Quận Đống Đa, Hà Nội, Việt Nam","name":"Green Coffee Ngõ 92 Láng Hạ","street":"Phố Láng Hạ"},"type":"Feature"},{"geometry":{"coordinates":[105.80481,21.00938],"type":"Point"},"properties":{"city":"Hà Nội","district":"Quận Cầu Giấy","location":"Quán Cafe Phin, Phố Nguyễn Thị Định, Phường Trung Hòa, Quận Cầu Giấy, Hà Nội, Việt Nam","name":"Quán Cafe Phin","street":"Phố Nguyễn Thị Định"},"type":"Feature"},{"geometry":{"coordinates":[105.80981,21.00727],"type":"Point"},"properties":{"city":"Hà Nội","district":"Quận Thanh Xuân","location":"Hope Coffee, Phố Hoàng Ngân, Phường Nhân Chính, Quận Thanh Xuân, Hà Nội, Việt Nam","name":"Hope Coffee","street":"Phố Hoàng Ngân"},"type":"Feature"},{"geometry":{"coordinates":[105.80741,21.00703],"type":"Point"},"properties":{"city":"Hà Nội","district":"Quận Thanh Xuân","location":"Phuc Long Coffee \u0026 Tea, Đường Lê Văn Lương, Phường Nhân Chính, Quận Thanh Xuân, Hà Nội, Việt Nam","name":"Phuc Long Coffee \u0026 Tea","street":"Đường Lê Văn Lương"},"type":"Feature"},{"geometry":{"coordinates":[105.80467,21.00959],"type":"Point"},"properties":{"city":"Hà Nội","district":"Quận Cầu Giấy","location":"Redland Cafe, Phố Nguyễn Thị Định, Phường Trung Hòa, Quận Cầu Giấy, Hà Nội, Việt Nam","name":"Redland Cafe","street":"Phố Nguyễn Thị Định"},"type":"Feature"},{"geometry":{"coordinates":[105.81179,21.00935],"type":"Point"},"properties":{"city":"Hà Nội","district":"Quận Cầu Giấy","location":"37 Cafe - Nguyễn Ngọc Vũ, 37 Đường Nguyễn Ngọc Vũ, Phường Trung Hòa, Quận Cầu Giấy, Hà Nội, Việt Nam","name":"37 Cafe - Nguyễn Ngọc Vũ","street":"Đường Nguyễn Ngọc Vũ"},"type":"Feature"},{"geometry":{"coordinates":[105.8047,21.00936],"type":"Point"},"properties":{"city":"Hà Nội","district":"Quận Cầu Giấy","location":"Cafe Nhân, Phố Nguyễn Thị Định, Phường Trung Hòa, Quận Cầu Giấy, Hà Nội, Việt Nam","name":"Cafe Nhân","street":"Phố Nguyễn Thị Định"},"type":"Feature"},{"geometry":{"coordinates":[105.81164,21.0118],"type":"Point"},"properties":{"city":"Hà Nội","district":"Quận Đống Đa","location":"Cafe Audio 86, Phường Láng Hạ, Quận Đống Đa, Hà Nội, Việt Nam","name":"Cafe Audio 86","street":""},"type":"Feature"},{"geometry":{"coordinates":[105.81164,21.0118],"type":"Point"},"properties":{"city":"Hà Nội","district":"Quận Đống Đa","location":"Red Coffee, Phường Láng Hạ, Quận Đống Đa, Hà Nội, Việt Nam","name":"Red Coffee","street":""},"type":"Feature"},{"geometry":{"coordinates":[105.8118,21.01142],"type":"Point"},"properties":{"city":"Hà Nội","district":"Quận Đống Đa","location":"Cà Phê Domino, Phố Láng Hạ, Phường Láng Hạ, Quận Đống Đa, Hà Nội, Việt Nam","name":"Cà Phê Domino","street":"Phố Láng Hạ"},"type":"Feature"},{"geometry":{"coordinates":[105.8116,21.0119],"type":"Point"},"properties":{"city":"Hà Nội","district":"Quận Đống Đa","location":"Kreampi Kone, Phố Láng Hạ, Phường Láng Hạ, Quận Đống Đa, Hà Nội, Việt Nam","name":"Kreampi Kone","street":"Phố Láng Hạ"},"type":"Feature"},{"geometry":{"coordinates":[105.8051,21.0085],"type":"Point"},"properties":{"city":"Hà Nội","district":"Quận Cầu Giấy","location":"Cộng Cà Phê, Ngõ 109 Nguyễn Thị Định, Phường Trung Hòa, Quận Cầu Giấy, Hà Nội, Việt Nam","name":"Cộng Cà Phê","street":"Ngõ 109 Nguyễn Thị Định"},"type":"Feature"},{"geometry":{"coordinates":[105.81155,21.01204],"type":"Point"},"properties":{"city":"Hà Nội","district":"Quận Đống Đa","location":"Cafe 82, Phường Láng Hạ, Quận Đống Đa, Hà Nội, Việt Nam","name":"Cafe 82","street":""},"type":"Feature"},{"geometry":{"coordinates":[105.80464,21.01132],"type":"Point"},"properties":{"city":"Hà Nội","district":"Quận Cầu Giấy","location":"Gemini, Ngõ 37 Nguyễn Thị Định, Phường Trung Hòa, Quận Cầu Giấy, Hà Nội, Việt Nam","name":"Gemini","street":"Ngõ 37 Nguyễn Thị Định"},"type":"Feature"},{"geometry":{"coordinates":[105.80596,21.00756],"type":"Point"},"properties":{"city":"Hà Nội","district":"Quận Thanh Xuân","location":"Quán Twitter Beans Coffee, Đường Nguyễn Thị Định, Phường Nhân Chính, Quận Thanh Xuân, Hà Nội, Việt Nam","name":"Quán Twitter Beans Coffee","street":"Đường Nguyễn Thị Định"},"type":"Feature"},{"geometry":{"coordinates":[105.80472,21.0091],"type":"Point"},"properties":{"city":"Hà Nội","district":"Quận Cầu Giấy","location":"Cafe Single, Phố Nguyễn Thị Định, Phường Trung Hòa, Quận Cầu Giấy, Hà Nội, Việt Nam","name":"Cafe Single","street":"Phố Nguyễn Thị Định"},"type":"Feature"},{"geometry":{"coordinates":[105.80473,21.00907],"type":"Point"},"properties":{"city":"Hà Nội","district":"Quận Cầu Giấy","location":"Cafe Bách Hợp, 101 Phố Nguyễn Thị Định, Phường Trung Hòa, Quận Cầu Giấy, Hà Nội, Việt Nam","name":"Cafe Bách Hợp","street":"Phố Nguyễn Thị Định"},"type":"Feature"},{"geometry":{"coordinates":[105.81187,21.00922],"type":"Point"},"properties":{"city":"Hà Nội","district":"Quận Cầu Giấy","location":"Retro Coffee - Nguyễn Ngọc Vũ, 39 Đường Nguyễn Ngọc Vũ, Phường Trung Hòa, Quận Cầu Giấy, Hà Nội, Việt Nam","name":"Retro Coffee - Nguyễn Ngọc Vũ","street":"Đường Nguyễn Ngọc Vũ"},"type":"Feature"},{"geometry":{"coordinates":[105.80623,21.01336],"type":"Point"},"properties":{"city":"Hà Nội","district":"Quận Cầu Giấy","location":"Soul Cafe, Đường Nguyễn Ngọc Vũ, Phường Trung Hòa, Quận Cầu Giấy, Hà Nội, Việt Nam","name":"Soul Cafe","street":"Đường Nguyễn Ngọc Vũ"},"type":"Feature"},{"geometry":{"coordinates":[105.80845,21.01393],"type":"Point"},"properties":{"city":"Hà Nội","district":"Quận Đống Đa","location":"Cafe Thiên Thành, 85 Ngõ Láng Trung, Phường Láng Hạ, Quận Đống Đa, Hà Nội, Việt Nam","name":"Cafe Thiên Thành","street":"Ngõ Láng Trung"},"type":"Feature"},{"geometry":{"coordinates":[105.80441,21.01001],"type":"Point"},"properties":{"city":"Hà Nội","district":"Quận Cầu Giấy","location":"Café Kingdom, Phố Hoàng Ngân, Phường Trung Hòa, Quận Cầu Giấy, Hà Nội, Việt Nam","name":"Café Kingdom","street":"Phố Hoàng Ngân"},"type":"Feature"},{"geometry":{"coordinates":[105.8047,21.0089],"type":"Point"},"properties":{"city":"Hà Nội","district":"Quận Cầu Giấy","location":"Cafe BĐS 68 Nguyễn Thị Định, Phố Nguyễn Thị Định, Phường Trung Hòa, Quận Cầu Giấy, Hà Nội, Việt Nam","name":"Cafe BĐS 68 Nguyễn Thị Định","street":"Phố Nguyễn Thị Định"},"type":"Feature"},{"geometry":{"coordinates":[105.80444,21.00969],"type":"Point"},"properties":{"city":"Hà Nội","district":"Quận Cầu Giấy","location":"A Sô Cafe, Ngõ 54 Nguyễn Thị Định, Phường Trung Hòa, Quận Cầu Giấy, Hà Nội, Việt Nam","name":"A Sô Cafe","street":"Ngõ 54 Nguyễn Thị Định"},"type":"Feature"},{"geometry":{"coordinates":[105.80439,21.00995],"type":"Point"},"properties":{"city":"Hà Nội","district":"Quận Cầu Giấy","location":"Quán Bánh Đa Cá Rô Oanh Định 2, Phố Hoàng Ngân, Phường Trung Hòa, Quận Cầu Giấy, Hà Nội, Việt Nam","name":"Quán Bánh Đa Cá Rô Oanh Định 2","street":"Phố Hoàng Ngân"},"type":"Feature"},{"geometry":{"coordinates":[105.80453,21.01147],"type":"Point"},"properties":{"city":"Hà Nội","district":"Quận Cầu Giấy","location":"Cafe Adam, Phố Nguyễn Thị Định, Phường Trung Hòa, Quận Cầu Giấy, Hà Nội, Việt Nam","name":"Cafe Adam","street":"Phố Nguyễn Thị Định"},"type":"Feature"},{"geometry":{"coordinates":[105.81011,21.0071],"type":"Point"},"properties":{"city":"Hà Nội","district":"Quận Cầu Giấy","location":"Highlands Coffee, 81 Đường Lê Văn Lương, Phường Trung Hòa, Quận Cầu Giấy, Hà Nội, Việt Nam","name":"Highlands Coffee","street":"Đường Lê Văn Lương"},"type":"Feature"},{"geometry":{"coordinates":[105.80535,21.00781],"type":"Point"},"properties":{"city":"Hà Nội","district":"Quận Thanh Xuân","location":"My Friends Café, Phố Nguyễn Thị Định, Phường Nhân Chính, Quận Thanh Xuân, Hà Nội, Việt Nam","name":"My Friends Café","street":"Phố Nguyễn Thị Định"},"type":"Feature"},{"geometry":{"coordinates":[105.81191,21.01185],"type":"Point"},"properties":{"city":"Hà Nội","district":"Quận Đống Đa","location":"121 Láng Hạ - Cafe Trung Nguyên, 121 Phố Láng Hạ, Phường Láng Hạ, Quận Đống Đa, Hà Nội, Việt Nam","name":"121 Láng Hạ - Cafe Trung Nguyên","street":"Phố Láng Hạ"},"type":"Feature"},{"geometry":{"coordinates":[105.81191,21.01185],"type":"Point"},"properties":{"city":"Hà Nội","district":"Quận Đống Đa","location":"Quán Cafe Yến, 121 Phố Láng Hạ, Phường Láng Hạ, Quận Đống Đa, Hà Nội, Việt Nam","name":"Quán Cafe Yến","street":"Phố Láng Hạ"},"type":"Feature"},{"geometry":{"coordinates":[105.81191,21.01185],"type":"Point"},"properties":{"city":"Hà Nội","district":"Quận Đống Đa","location":"Cafe Yến 121, 121 Phố Láng Hạ, Phường Láng Hạ, Quận Đống Đa, Hà Nội, Việt Nam","name":"Cafe Yến 121","street":"Phố Láng Hạ"},"type":"Feature"},{"geometry":{"coordinates":[105.81162,21.01242],"type":"Point"},"properties":{"city":"Hà Nội","district":"Quận Đống Đa","location":"Cà phê Pema, Ngõ 90 Láng Hạ, Phường Láng Hạ, Quận Đống Đa, Hà Nội, Việt Nam","name":"Cà phê Pema","street":"Ngõ 90 Láng Hạ"},"type":"Feature"},{"geometry":{"coordinates":[105.80427,21.0097],"type":"Point"},"properties":{"city":"Hà Nội","district":"Quận Cầu Giấy","location":"Giọt Đắng Coffee, Ngõ 54 Nguyễn Thị Định, Phường Trung Hòa, Quận Cầu Giấy, Hà Nội, Việt Nam","name":"Giọt Đắng Coffee","street":"Ngõ 54 Nguyễn Thị Định"},"type":"Feature"},{"geometry":{"coordinates":[105.80548,21.00758],"type":"Point"},"properties":{"city":"Hà Nội","district":"Quận Thanh Xuân","location":"Sport Cafe - Nguyễn Thị Định, 54 Hẻm B24 Đường Nguyễn Thị Định, Phường Nhân Chính, Quận Thanh Xuân, Hà Nội, Việt Nam","name":"Sport Cafe - Nguyễn Thị Định","street":"Hẻm B24 Đường Nguyễn Thị Định"},"type":"Feature"},{"geometry":{"coordinates":[105.80548,21.00758],"type":"Point"},"properties":{"city":"Hà Nội","district":"Quận Thanh Xuân","location":"S\u0026B Cafeteria, 54 Hẻm B24 Đường Nguyễn Thị Định, Phường Nhân Chính, Quận Thanh Xuân, Hà Nội, Việt Nam","name":"S\u0026B Cafeteria","street":"Hẻm B24 Đường Nguyễn Thị Định"},"type":"Feature"},{"geometry":{"coordinates":[105.80607,21.01355],"type":"Point"},"properties":{"city":"Hà Nội","district":"Quận Cầu Giấy","location":"Thỏ Cafe, Đường Nguyễn Ngọc Vũ, Phường Trung Hòa, Quận Cầu Giấy, Hà Nội, Việt Nam","name":"Thỏ Cafe","street":"Đường Nguyễn Ngọc Vũ"},"type":"Feature"},{"geometry":{"coordinates":[105.80423,21.00972],"type":"Point"},"properties":{"city":"Hà Nội","district":"Quận Cầu Giấy","location":"Cafe 26, Phố Nguyễn Thị Định, Phường Trung Hòa, Quận Cầu Giấy, Hà Nội, Việt Nam","name":"Cafe 26","street":"Phố Nguyễn Thị Định"},"type":"Feature"},{"geometry":{"coordinates":[105.81213,21.00912],"type":"Point"},"properties":{"city":"Hà Nội","district":"Quận Cầu Giấy","location":"Châu Linh 2211, Đường Nguyễn Ngọc Vũ, Phường Trung Hòa, Quận Cầu Giấy, Hà Nội, Việt Nam","name":"Châu Linh 2211","street":"Đường Nguyễn Ngọc Vũ"},"type":"Feature"},{"geometry":{"coordinates":[105.80556,21.00748],"type":"Point"},"properties":{"city":"Hà Nội","district":"Quận Thanh Xuân","location":"Dingtea 42 Nguyễn Thị Định, Đường Nguyễn Thị Định, Phường Nhân Chính, Quận Thanh Xuân, Hà Nội, Việt Nam","name":"Dingtea 42 Nguyễn Thị Định","street":"Đường Nguyễn Thị Định"},"type":"Feature"},{"geometry":{"coordinates":[105.80564,21.00741],"type":"Point"},"properties":{"city":"Hà Nội","district":"Quận Thanh Xuân","location":"Hầm Cafe, 44 Phố Nguyễn Thị Định, Phường Nhân Chính, Quận Thanh Xuân, Hà Nội, Việt Nam","name":"Hầm Cafe","street":"Phố Nguyễn Thị Định"},"type":"Feature"},{"geometry":{"coordinates":[105.80564,21.00741],"type":"Point"},"properties":{"city":"Hà Nội","district":"Quận Thanh Xuân","location":"Quán Cafe Hầm, 44 Phố Nguyễn Thị Định, Phường Nhân Chính, Quận Thanh Xuân, Hà Nội, Việt Nam","name":"Quán Cafe Hầm","street":"Phố Nguyễn Thị Định"},"type":"Feature"},{"geometry":{"coordinates":[105.80564,21.00741],"type":"Point"},"properties":{"city":"Hà Nội","district":"Quận Thanh Xuân","location":"Cà Phê Hiền, 44 Phố Nguyễn Thị Định, Phường Nhân Chính, Quận Thanh Xuân, Hà Nội, Việt Nam","name":"Cà Phê Hiền","street":"Phố Nguyễn Thị Định"},"type":"Feature"},{"geometry":{"coordinates":[105.80437,21.01158],"type":"Point"},"properties":{"city":"Hà Nội","district":"Quận Cầu Giấy","location":"Cà Phê Q, Phố Nguyễn Thị Định, Phường Trung Hòa, Quận Cầu Giấy, Hà Nội, Việt Nam","name":"Cà Phê Q","street":"Phố Nguyễn Thị Định"},"type":"Feature"},{"geometry":{"coordinates":[105.80559,21.00739],"type":"Point"},"properties":{"city":"Hà Nội","district":"Quận Thanh Xuân","location":"Gemini Coffee - Nguyễn Thị Định, 40 Ngõ 131 Nguyễn Thị Định, Phường Nhân Chính, Quận Thanh Xuân, Hà Nội, Việt Nam","name":"Gemini Coffee - Nguyễn Thị Định","street":"Ngõ 131 Nguyễn Thị Định"},"type":"Feature"},{"geometry":{"coordinates":[105.80559,21.00739],"type":"Point"},"properties":{"city":"Hà Nội","district":"Quận Thanh Xuân","location":"Hương Anh Coffee, Ngõ 131 Nguyễn Thị Định, Phường Nhân Chính, Quận Thanh Xuân, Hà Nội, Việt Nam","name":"Hương Anh Coffee","street":"Ngõ 131 Nguyễn Thị Định"},"type":"Feature"},{"geometry":{"coordinates":[105.80543,21.00749],"type":"Point"},"properties":{"city":"Hà Nội","district":"Quận Thanh Xuân","location":"DING TEA, Phố Nguyễn Thị Định, Phường Nhân Chính, Quận Thanh Xuân, Hà Nội, Việt Nam","name":"DING TEA","street":"Phố Nguyễn Thị Định"},"type":"Feature"}],"type":"FeatureCollection"}